,City,Country,Lat,Lng,Max Temp,Humidity,Cloudiness,Wind Speed,Current Description
0,Skibbereen,IE,51.55,-9.2667,50.11,83,100,15.41,moderate rain
1,Bredasdorp,ZA,-34.5322,20.0403,59.72,87,46,3.8,scattered clouds
2,Beloha,MG,-25.1667,45.05,73.27,81,94,16.22,overcast clouds
3,Hilo,US,19.7297,-155.09,74.93,76,0,6.91,clear sky
4,Kruisfontein,ZA,-34.0033,24.7314,68.09,37,100,7.49,overcast clouds
5,Senno,RU,59.5336,33.9167,42.26,85,16,8.84,few clouds
6,Pyinmana,MM,19.7333,96.2167,99.32,28,2,9.01,clear sky
7,Avarua,CK,-21.2078,-159.775,77.05,53,20,9.22,few clouds
8,Atlantic Beach,US,30.3344,-81.3987,71.71,62,75,19.57,broken clouds
9,El Sauzal,MX,31.9,-116.6833,58.42,82,0,7.61,clear sky
10,Saint-Philippe,RE,-21.3585,55.7679,81.21,83,58,7.25,broken clouds
11,Tuktoyaktuk,CA,69.4541,-133.0374,5.0,85,20,6.91,few clouds
12,Puerto Ayora,EC,-0.7393,-90.3518,72.99,95,68,5.53,broken clouds
13,Kaitangata,NZ,-46.2817,169.8464,53.46,92,96,1.25,light rain
14,Arnedo,ES,42.2167,-2.1,44.1,87,98,12.66,overcast clouds
15,Busselton,AU,-33.65,115.3333,72.88,42,0,9.57,clear sky
16,Mehamn,NO,71.0357,27.8492,40.95,81,75,6.91,broken clouds
17,Rikitea,PF,-23.1203,-134.9692,79.09,68,40,19.77,scattered clouds
18,Vaini,TO,-21.2,-175.2,82.56,83,40,11.5,scattered clouds
19,Vao,NC,-22.6667,167.4833,75.87,65,0,10.47,clear sky
20,Georgetown,MY,5.4112,100.3354,87.75,70,20,6.91,few clouds
21,Atuona,PF,-9.8,-139.0333,79.2,78,22,15.66,few clouds
22,Labuhan,ID,-6.8844,112.2051,84.65,71,89,6.73,overcast clouds
23,New Norfolk,AU,-42.7826,147.0587,57.65,42,81,1.99,broken clouds
24,Linxia,CN,35.6003,103.2064,66.15,15,32,6.62,scattered clouds
25,Vanimo,PG,-2.6741,141.3028,76.5,95,100,2.06,overcast clouds
26,Safaga,EG,26.7292,33.9365,69.46,40,36,17.9,scattered clouds
27,Kaniama,CD,-7.5667,24.1833,66.67,98,100,2.8,light rain
28,Olafsvik,IS,64.8945,-23.7142,45.72,88,100,5.37,overcast clouds
29,Tilichiki,RU,60.4667,166.1,23.29,81,8,3.83,clear sky
30,San Patricio,US,28.017,-97.5169,76.86,92,7,14.05,clear sky
31,Ushuaia,AR,-54.8,-68.3,42.46,70,40,26.46,scattered clouds
32,Yellowknife,CA,62.456,-114.3525,21.72,58,0,5.75,clear sky
33,Cidreira,BR,-30.1811,-50.2056,66.02,84,5,10.36,clear sky
34,Pangnirtung,CA,66.1451,-65.7125,12.85,93,100,5.32,overcast clouds
35,Port Lincoln,AU,-34.7333,135.8667,64.11,56,78,10.47,broken clouds
36,Son La,VN,21.3167,103.9,84.13,50,74,1.63,broken clouds
37,Kapaa,US,22.0752,-159.319,78.78,98,100,12.66,light rain
38,Bethel,US,41.3712,-73.414,43.65,66,0,0.0,clear sky
39,Kavaratti,IN,10.5669,72.642,85.17,71,61,7.72,broken clouds
40,Laela,TZ,-8.5667,32.05,59.76,92,81,2.71,broken clouds
41,Sao Miguel Do Araguaia,BR,-13.275,-50.1628,73.42,68,12,5.1,few clouds
42,Kitale,KE,1.0157,35.0062,60.53,86,76,2.04,broken clouds
43,Sola,VU,-13.8833,167.55,83.16,72,23,10.63,few clouds
44,Shizunai,JP,42.3339,142.3669,52.48,62,5,7.72,clear sky
45,Thompson,CA,55.7435,-97.8558,26.76,54,75,11.5,broken clouds
46,Chapais,CA,49.7834,-74.8492,20.98,94,48,4.34,scattered clouds
47,Isilkul,RU,54.9109,71.2728,49.01,54,94,12.03,overcast clouds
48,Mahebourg,MU,-20.4081,57.7,82.26,89,40,3.44,scattered clouds
49,Jamestown,US,42.097,-79.2353,46.04,50,0,8.05,clear sky
50,Provideniya,RU,64.3833,-173.3,32.11,64,0,6.71,clear sky
51,Eugene,US,44.0521,-123.0867,47.95,95,100,9.22,overcast clouds
52,Heyang,CN,26.1011,107.473,64.49,83,100,7.4,overcast clouds
53,Mataura,NZ,-46.1927,168.8643,55.47,99,100,2.15,overcast clouds
54,Saint-Leu,RE,-21.15,55.2833,81.32,78,49,8.01,scattered clouds
55,Namatanai,PG,-3.6667,152.4333,83.91,72,43,11.5,light rain
56,Cape Town,ZA,-33.9258,18.4232,62.91,91,75,3.44,fog
57,Ostrovnoy,RU,68.0531,39.5131,32.99,91,100,15.84,overcast clouds
58,Teahupoo,PF,-17.8333,-149.2667,76.96,77,74,10.74,light rain
59,Erzin,TR,36.9559,36.2,58.48,80,33,2.35,scattered clouds
60,Placido De Castro,BR,-10.3353,-67.1856,72.7,98,100,0.83,overcast clouds
61,Yulara,AU,-25.2406,130.9889,76.84,20,40,12.66,scattered clouds
62,Allapalli,IN,19.4167,80.0667,100.67,29,4,9.24,clear sky
63,Kyzyl-Suu,KG,42.3414,78.0056,52.05,78,100,4.47,overcast clouds
64,Hasaki,JP,35.7333,140.8333,70.29,77,100,12.33,overcast clouds
65,Saint Stephen,GB,50.3333,-4.9,46.67,76,100,9.22,overcast clouds
66,Bluff,NZ,-46.6,168.3333,55.8,82,100,10.85,overcast clouds
67,Katsuura,JP,35.1333,140.3,65.46,74,100,7.72,overcast clouds
68,Bambous Virieux,MU,-20.3428,57.7575,82.22,89,40,3.44,scattered clouds
69,Luderitz,NA,-26.6481,15.1594,67.93,46,7,5.21,clear sky
70,Ribeira Grande,PT,38.5167,-28.7,59.07,74,82,14.29,broken clouds
71,Challapata,BO,-18.9,-66.7667,46.8,25,13,2.53,few clouds
72,Debre Birhan,ET,9.6833,39.5333,58.33,50,97,3.83,overcast clouds
73,Albany,US,42.6001,-73.9662,36.45,76,27,1.5,scattered clouds
74,Mayo,US,38.8876,-76.5119,51.94,72,0,10.36,clear sky
75,Ponta Do Sol,PT,32.6667,-17.1,61.43,70,14,3.29,few clouds
76,Torbay,CA,47.6666,-52.7314,38.75,92,100,12.66,light rain
77,Punta Arenas,CL,-53.15,-70.9167,42.91,81,40,9.22,scattered clouds
78,Guerrero Negro,MX,27.9769,-114.0611,59.9,83,0,15.64,clear sky
79,Santa Maria,BR,-29.6842,-53.8069,59.41,91,49,3.89,scattered clouds
80,Gilgit,PK,35.9221,74.3087,64.58,50,100,4.14,overcast clouds
81,Chokurdakh,RU,70.6333,147.9167,21.78,93,42,4.83,scattered clouds
82,Hofn,IS,64.2539,-15.2082,45.3,96,100,9.22,overcast clouds
83,Butaritari,KI,3.0707,172.7902,81.32,80,79,14.54,light rain
84,Los Algarrobos,PA,8.5,-82.4333,74.1,86,51,2.28,broken clouds
85,Lodwar,KE,3.1191,35.5973,81.75,59,99,16.73,light rain
86,Lozova,UA,48.8894,36.3176,41.56,78,8,10.87,clear sky
87,Gat,IL,31.61,34.7642,58.82,100,1,6.76,clear sky
88,Misratah,LY,32.3754,15.0925,68.34,40,100,24.61,overcast clouds
89,Huilong,CN,31.8111,121.655,66.6,72,24,9.71,few clouds
90,Bundaberg,AU,-24.85,152.35,83.21,66,40,10.36,scattered clouds
91,Ponta Delgada,PT,37.7333,-25.6667,57.92,77,75,6.91,broken clouds
92,Sao Joao Da Barra,BR,-21.6403,-41.0511,68.65,90,0,5.59,clear sky
93,Pontes E Lacerda,BR,-15.2261,-59.3353,68.41,86,85,2.46,overcast clouds
94,Deputatskiy,RU,69.3,139.9,23.38,79,87,3.11,overcast clouds
95,Beringovskiy,RU,63.05,179.3167,30.0,90,100,3.27,overcast clouds
96,Champerico,GT,14.3,-91.9167,82.99,68,3,1.7,clear sky
97,Port Alfred,ZA,-33.5906,26.891,72.72,48,99,9.19,overcast clouds
98,Dunedin,NZ,-45.8742,170.5036,56.8,92,100,11.01,overcast clouds
99,Solnechnyy,RU,50.7214,136.6319,40.37,84,100,5.93,overcast clouds
100,Leshukonskoye,RU,64.8989,45.7622,27.75,77,30,2.33,scattered clouds
101,Tasiilaq,GL,65.6145,-37.6368,32.16,92,87,3.06,overcast clouds
102,Castro,BR,-24.7911,-50.0119,53.62,91,0,3.24,clear sky
103,San Isidro,PE,-12.1167,-77.05,73.02,71,0,8.05,clear sky
104,Longyearbyen,SJ,78.2186,15.6401,28.24,74,20,3.44,few clouds
105,Valsad,IN,20.6333,72.9333,93.42,31,50,12.28,scattered clouds
106,Hobart,AU,-42.8794,147.3294,58.01,51,40,12.66,scattered clouds
107,Poum,NC,-20.2333,164.0167,78.24,70,25,17.38,scattered clouds
108,Arraial Do Cabo,BR,-22.9661,-42.0278,72.46,79,2,10.92,clear sky
109,Castelo Do Piaui,BR,-5.3222,-41.5525,73.69,91,88,3.15,overcast clouds
110,Ahipara,NZ,-35.1667,173.1667,69.24,86,23,7.4,few clouds
111,Tynda,RU,55.1667,124.7167,33.22,40,77,8.9,broken clouds
112,Port Macquarie,AU,-31.4333,152.9167,73.89,67,44,9.75,scattered clouds
113,Port Hawkesbury,CA,45.6169,-61.3485,42.75,80,100,7.0,overcast clouds
114,Barrow,US,71.2906,-156.7887,8.62,78,0,11.5,clear sky
115,Kodiak,US,57.79,-152.4072,42.31,61,40,6.91,scattered clouds
116,Faanui,PF,-16.4833,-151.75,81.25,71,15,7.58,few clouds
117,Niquelandia,BR,-14.4739,-48.4597,69.58,60,18,3.18,few clouds
118,Acarau,BR,-2.8856,-40.12,76.93,90,18,8.52,few clouds
119,Teruel,ES,40.6667,-0.6667,33.48,98,100,21.63,light snow
120,Sorong,ID,-0.8833,131.25,86.32,66,100,6.8,overcast clouds
121,Airai,TL,-8.9266,125.4092,70.72,75,56,4.32,broken clouds
122,Mikuni,JP,36.2171,136.1519,73.31,62,100,11.3,overcast clouds
123,Yarmouth,US,41.7057,-70.2286,45.97,88,0,3.0,clear sky
124,Havelock,US,34.8791,-76.9013,57.92,83,6,5.93,clear sky
125,Qaanaaq,GL,77.484,-69.3632,-11.0,87,96,7.81,overcast clouds
126,East London,ZA,-33.0153,27.9116,65.34,77,0,5.75,clear sky
127,Nianzishan,CN,47.5167,122.8833,45.27,47,100,14.79,moderate rain
128,Nome,US,64.5011,-165.4064,35.67,55,0,5.75,clear sky
129,Chimoio,MZ,-19.1164,33.4833,66.06,100,75,4.72,light intensity drizzle
130,Aswan,EG,24.0934,32.907,61.9,31,0,6.91,clear sky
131,Narsaq,GL,60.9167,-46.05,35.82,63,100,4.5,light rain
132,Saldanha,ZA,-33.0117,17.9442,59.05,95,0,9.98,clear sky
133,Oussouye,SN,12.485,-16.5469,69.98,79,59,9.37,broken clouds
134,Srednekolymsk,RU,67.45,153.6833,28.15,79,56,1.7,broken clouds
135,Rottingdean,GB,50.8098,-0.0594,49.17,86,93,11.99,overcast clouds
136,Palmer,US,42.1584,-72.3287,40.91,79,0,0.0,clear sky
137,Constitucion,CL,-35.3333,-72.4167,50.77,67,26,7.45,scattered clouds
138,Taltal,CL,-25.4,-70.4833,61.03,84,40,1.48,scattered clouds
139,Nikolskoye,RU,59.7035,30.7861,43.88,83,18,7.87,few clouds
140,Fayaoue,NC,-20.65,166.5333,78.33,73,22,13.04,few clouds
141,Walvis Bay,NA,-22.9575,14.5053,65.08,47,49,5.95,scattered clouds
142,Yar-Sale,RU,66.8333,70.8333,10.83,90,100,26.66,light snow
143,Mecca,SA,21.4267,39.8261,86.07,38,69,1.74,broken clouds
144,Anloga,GH,5.7947,0.8973,78.24,87,100,9.28,light rain
145,Angoche,MZ,-16.2325,39.9086,75.18,91,73,10.94,broken clouds
146,Chico,US,39.7285,-121.8375,55.63,87,100,9.55,overcast clouds
147,Bowen,AU,-20.0167,148.2333,76.01,92,100,13.65,light rain
148,Tarakan,ID,3.3,117.6333,85.5,70,20,3.44,few clouds
149,Cherskiy,RU,68.75,161.3,29.55,84,75,2.3,broken clouds
150,Talcahuano,CL,-36.7167,-73.1167,49.68,81,0,4.61,light rain
151,Pinega,RU,64.7001,43.3936,29.37,73,9,2.08,clear sky
152,Shingu,JP,33.7333,135.9833,61.5,97,100,4.92,moderate rain
153,Bathsheba,BB,13.2167,-59.5167,79.41,73,40,16.11,scattered clouds
154,Alyangula,AU,-13.8483,136.4192,89.47,51,61,8.05,broken clouds
155,Nanga Eboko,CM,4.6833,12.3667,69.39,97,95,2.48,overcast clouds
156,Paciran,ID,-6.8767,112.3761,84.74,71,77,6.67,broken clouds
157,Kibala,TD,9.1104,18.3463,80.55,61,0,6.91,clear sky
158,Camacupa,AO,-12.0167,17.4833,58.46,95,79,4.54,broken clouds
159,Sabang,ID,5.8933,95.3214,83.5,70,100,1.92,overcast clouds
160,Machachi,EC,-0.5,-78.5667,47.75,98,100,1.79,light rain
161,Yola,NG,9.2,12.4833,84.54,50,100,4.92,overcast clouds
162,Atar,MR,20.5169,-13.0499,74.39,20,4,8.68,clear sky
163,Kupang,ID,-10.1667,123.5833,87.42,64,36,12.48,scattered clouds
164,Cururupu,BR,-1.8283,-44.8683,75.09,95,86,2.42,overcast clouds
165,Mount Isa,AU,-20.7333,139.5,92.97,21,40,9.22,scattered clouds
166,Port Hardy,CA,50.6996,-127.4199,48.38,61,100,8.05,light intensity shower rain
167,Nadym,RU,65.5333,72.5167,13.71,89,100,24.29,light snow
168,Norman Wells,CA,65.282,-126.8329,35.64,21,0,3.44,clear sky
169,Albion,US,42.2431,-84.753,50.32,66,100,10.36,drizzle
170,Christchurch,NZ,-43.5333,172.6333,79.0,36,40,17.27,scattered clouds
171,Gornyak,RU,50.9942,81.4661,60.37,51,100,20.69,overcast clouds
172,Ancud,CL,-41.8697,-73.8203,54.23,94,100,22.28,moderate rain
173,Isabela,PH,6.7085,121.9711,86.05,72,100,5.88,overcast clouds
174,Char Bhadrasan,BD,23.3167,90.2167,89.62,55,13,6.04,few clouds
175,Boddam,GB,57.4667,-1.7833,39.43,83,64,8.19,broken clouds
176,Anda,CN,46.4,125.3167,60.78,42,100,12.97,light rain
177,Manjacaze,MZ,-24.7117,33.8828,69.22,85,100,3.58,overcast clouds
178,Kirakira,SB,-10.4544,161.9205,84.11,73,89,7.02,overcast clouds
179,Pevek,RU,69.7008,170.3133,29.03,79,100,0.29,overcast clouds
180,Wollongong,AU,-34.4333,150.8833,67.98,74,59,13.09,broken clouds
181,Godda,IN,24.8333,87.2167,91.99,48,33,9.15,scattered clouds
182,Comodoro Rivadavia,AR,-45.8667,-67.5,57.06,41,0,14.97,clear sky
183,Rafraf,TN,37.1904,10.1837,57.51,92,100,13.58,light rain
184,Lorengau,PG,-2.0226,147.2712,85.69,65,24,10.6,few clouds
185,Victoria,HK,22.2855,114.1577,81.97,77,88,10.0,overcast clouds
186,Kalvarija,LT,54.4,23.2333,43.88,89,100,11.45,overcast clouds
187,Elizabeth City,US,36.2946,-76.2511,51.82,81,0,3.44,clear sky
188,Bongaree,AU,-27.0797,153.1586,80.22,69,76,14.16,broken clouds
189,Tukrah,LY,32.5341,20.5791,63.0,51,77,20.83,broken clouds
190,Kandrian,PG,-6.2167,149.55,84.02,75,86,7.02,light rain
191,Cabedelo,BR,-6.9811,-34.8339,75.87,86,36,7.85,scattered clouds
192,Wanparti,IN,16.3667,78.0667,97.95,26,4,9.8,clear sky
193,Kudat,MY,6.8837,116.8477,84.29,84,20,5.01,few clouds
194,Los Llanos De Aridane,ES,28.6585,-17.9182,60.55,81,100,9.22,overcast clouds
195,Qiongshan,CN,20.0058,110.3542,82.38,69,75,6.71,broken clouds
196,Yerbogachen,RU,61.2767,108.0108,29.25,62,79,8.14,broken clouds
197,Tiksi,RU,71.6872,128.8694,13.21,92,100,6.55,overcast clouds
198,Beitbridge,ZW,-22.2167,30.0,63.34,84,100,5.59,light rain
199,Baykit,RU,61.67,96.37,28.67,82,100,4.5,overcast clouds
200,Bourg-En-Bresse,FR,46.1667,5.1667,54.3,91,100,1.61,overcast clouds
201,Ibra,OM,22.6906,58.5334,85.71,28,42,3.53,scattered clouds
202,Saint George,US,37.1041,-113.5841,70.25,26,0,5.75,clear sky
203,Mogadishu,SO,2.0371,45.3438,83.79,66,92,10.47,overcast clouds
204,Khatanga,RU,71.9667,102.5,10.9,87,53,6.11,broken clouds
205,Lompoc,US,34.6391,-120.4579,55.29,85,100,8.01,overcast clouds
206,Kudahuvadhoo,MV,2.6708,72.8944,83.46,73,56,8.77,broken clouds
207,Meulaboh,ID,4.1363,96.1285,85.35,62,98,2.19,overcast clouds
208,Prinos,GR,40.75,24.5833,51.85,87,20,4.61,few clouds
209,Xai-Xai,MZ,-25.0519,33.6442,71.38,81,100,6.46,overcast clouds
210,Stanislav,UA,46.5691,32.1478,45.79,83,99,12.71,overcast clouds
211,North Bend,US,43.4065,-124.2243,48.24,96,100,11.5,overcast clouds
212,Westport,US,41.1415,-73.3579,46.89,65,0,0.0,clear sky
213,La Mira,MX,18.035,-102.3266,73.29,80,0,2.86,clear sky
214,Bawku,GH,11.0616,-0.2417,85.84,50,100,11.54,overcast clouds
215,Talnakh,RU,69.4865,88.3972,20.21,76,36,3.02,scattered clouds
216,Kavieng,PG,-2.5744,150.7967,84.24,73,100,12.24,light rain
217,Hermanus,ZA,-34.4187,19.2345,59.81,94,42,4.18,scattered clouds
218,Seddon,AU,-37.8068,144.8916,64.67,52,100,14.97,overcast clouds
219,Orimattila,FI,60.8049,25.7296,39.31,91,39,8.46,scattered clouds
220,Winnemucca,US,40.973,-117.7357,55.45,28,0,12.66,clear sky
221,Iqaluit,CA,63.7506,-68.5145,17.33,78,100,10.36,light snow
222,La Seyne-Sur-Mer,FR,43.0982,5.8847,55.87,92,100,3.0,overcast clouds
223,Guiratinga,BR,-16.3494,-53.7583,71.89,62,36,3.65,scattered clouds
224,Shilong,CN,23.1123,113.8425,83.86,51,25,5.46,scattered clouds
225,Rock Sound,BS,24.9,-76.2,74.66,76,13,27.13,few clouds
226,Nanortalik,GL,60.1432,-45.2371,32.56,75,100,14.29,light snow
227,Lazaro Cardenas,MX,17.9583,-102.2,74.68,82,0,2.3,clear sky
228,Alice Springs,AU,-23.7,133.8833,74.75,23,1,14.97,clear sky
229,Muros,ES,42.7762,-9.0603,47.84,87,97,6.4,overcast clouds
230,Richards Bay,ZA,-28.783,32.0377,62.37,86,23,7.81,few clouds
231,Tura,IN,25.5198,90.2201,85.51,43,19,3.71,few clouds
232,Lucapa,AO,-8.4192,20.7447,65.97,99,93,0.65,moderate rain
233,Polyarnyy,RU,69.1989,33.4478,36.82,97,100,8.3,overcast clouds
234,Puerto Del Rosario,ES,28.5004,-13.8627,64.15,68,75,16.11,broken clouds
235,Tual,ID,-5.6667,132.75,83.25,72,100,2.55,overcast clouds
236,Kozhva,RU,65.1073,57.0459,16.74,70,68,11.18,broken clouds
237,Bar-Le-Duc,FR,48.75,5.1667,43.18,73,72,1.01,broken clouds
238,Ucluelet,CA,48.9329,-125.5528,44.1,89,100,12.91,overcast clouds
239,Axim,GH,4.8699,-2.2405,78.87,89,95,6.62,light rain
240,Port Elizabeth,ZA,-33.918,25.5701,72.32,49,0,1.14,clear sky
241,Mayma,RU,52.0197,85.9114,52.32,54,100,5.7,overcast clouds
242,Gamboula,CF,4.1178,15.1393,68.5,94,94,2.8,overcast clouds
243,Ilinskiy,RU,55.619,38.1182,46.11,57,75,18.01,broken clouds
244,Ilulissat,GL,69.2167,-51.1,19.42,42,100,4.61,overcast clouds
245,Agadez,NE,19.75,10.25,75.79,13,16,7.63,few clouds
246,Anchorage,US,61.2181,-149.9003,46.72,40,0,6.91,shower rain
247,Port Blair,IN,11.6667,92.75,86.04,70,40,8.05,scattered clouds
248,Urumqi,CN,43.801,87.6005,63.55,15,0,6.71,clear sky
249,Isangel,VU,-19.55,169.2667,81.0,74,58,8.68,broken clouds
250,Dikson,RU,73.5069,80.5464,6.03,92,100,15.48,overcast clouds
251,Thinadhoo,MV,0.5333,72.9333,83.88,70,40,7.67,scattered clouds
252,Khor,RU,47.8861,134.9464,72.36,29,98,15.7,overcast clouds
253,Maragogi,BR,-9.0122,-35.2225,77.09,74,75,5.79,broken clouds
254,Olds,CA,51.7834,-114.102,29.25,86,64,8.05,broken clouds
255,Fortuna,US,40.5982,-124.1573,49.12,89,100,12.66,overcast clouds
256,Goderich,CA,43.7501,-81.7165,46.72,46,100,14.97,overcast clouds
257,Lebyazhye,RU,55.2689,66.4947,41.52,82,80,13.73,broken clouds
258,Hithadhoo,MV,-0.6,73.0833,83.21,68,65,4.65,broken clouds
259,Pilar,BR,-9.5972,-35.9567,71.53,78,59,1.19,broken clouds
260,Inhambane,MZ,-23.865,35.3833,72.66,82,100,12.01,overcast clouds
261,Lydenburg,ZA,-25.0978,30.4597,54.25,81,93,1.03,overcast clouds
262,Luganville,VU,-15.5333,167.1667,82.89,79,33,6.42,scattered clouds
263,Port Hueneme,US,34.1478,-119.1951,57.58,85,75,16.11,broken clouds
264,Ambalavao,MG,-21.8333,46.9333,65.21,74,1,5.03,clear sky
265,Mkushi,ZM,-13.6202,29.3939,61.32,92,91,7.27,overcast clouds
266,Jiquilisco,SV,13.3167,-88.5833,79.43,75,1,3.6,clear sky
267,Tshane,BW,-24.0196,21.8684,55.63,77,0,7.05,clear sky
268,Camacha,PT,33.0833,-16.3333,56.62,77,40,9.22,scattered clouds
269,Sao Filipe,CV,14.8961,-24.4956,72.46,78,82,6.29,broken clouds
270,Naze,JP,28.3667,129.4833,77.92,81,100,20.78,overcast clouds
271,Mandalgovi,MN,45.7625,106.2708,37.08,44,39,8.81,scattered clouds
272,Ardino,BG,41.5833,25.1333,39.85,76,41,1.21,scattered clouds
273,Bartica,GY,6.4,-58.6167,77.32,98,43,2.01,scattered clouds
274,Bulungu,CD,-4.55,18.6,70.65,95,100,2.26,overcast clouds
275,Salisbury,GB,51.0693,-1.7957,47.17,75,100,11.5,overcast clouds
276,Gaoyou,CN,32.7858,119.4278,73.58,52,0,12.71,clear sky
277,Timmins,CA,48.4669,-81.3331,39.02,41,100,13.8,overcast clouds
278,Markova,UA,48.6758,24.4138,38.12,79,66,3.62,broken clouds
279,Port Hedland,AU,-20.3167,118.5667,98.65,15,66,12.66,broken clouds
280,Alugan,PH,12.2188,125.4808,82.87,82,93,9.69,overcast clouds
281,Yibin,CN,28.7667,104.6238,81.37,47,57,2.44,broken clouds
282,Rundu,NA,-17.9333,19.7667,52.84,74,87,5.66,overcast clouds
283,Sarakhs,IR,36.5449,61.1577,71.4,40,0,3.96,clear sky
284,Kalabo,ZM,-14.97,22.6814,60.55,78,82,4.83,broken clouds
285,Teacapan,MX,22.55,-105.75,69.33,84,2,1.83,clear sky
286,Pisco,PE,-13.7,-76.2167,66.25,82,0,6.91,clear sky
287,Arti,RU,56.4234,58.5328,37.53,70,88,14.38,overcast clouds
288,Garowe,SO,8.4054,48.4845,77.63,63,89,10.65,overcast clouds
289,Minudasht,IR,37.2289,55.3747,65.77,72,0,0.0,clear sky
290,Abbeville,FR,50.1,1.8333,46.36,84,76,5.79,broken clouds
291,Lixourion,GR,38.2019,20.4314,55.4,100,20,6.91,few clouds
292,Grand Gaube,MU,-20.0064,57.6608,82.38,82,100,1.99,overcast clouds
293,Aasiaat,GL,68.7098,-52.8699,15.37,60,100,22.7,overcast clouds
294,Cabo San Lucas,MX,22.8909,-109.9124,69.51,79,2,11.07,clear sky
295,Hovd,MN,48.0056,91.6419,49.32,27,26,9.19,scattered clouds
296,Callaway,US,30.153,-85.5699,67.91,69,0,6.91,clear sky
297,Lebu,CL,-37.6167,-73.65,50.09,77,88,1.36,overcast clouds
298,Jangipur,IN,24.4667,88.0667,88.02,60,87,6.26,overcast clouds
299,Chuy,UY,-33.6971,-53.4616,62.04,91,96,7.9,overcast clouds
300,Sao Geraldo Do Araguaia,BR,-6.4006,-48.555,72.63,97,99,1.77,overcast clouds
301,Monte Alegre,BR,-2.0078,-54.0692,73.49,99,100,1.41,overcast clouds
302,Flinders,AU,-34.5833,150.8552,69.08,63,67,11.43,broken clouds
303,Roebourne,AU,-20.7833,117.1333,94.48,25,2,11.23,clear sky
304,Kolyvan,RU,55.3053,82.7391,37.02,90,100,5.44,overcast clouds
305,Parry Sound,CA,45.3501,-80.033,44.65,57,100,14.41,overcast clouds
306,Nouadhibou,MR,20.931,-17.0347,62.58,88,68,19.57,broken clouds
307,Barra Patuca,HN,15.8,-84.2833,77.68,82,6,7.72,clear sky
308,Daru,PG,-9.0763,143.2092,82.02,81,100,10.36,overcast clouds
309,Taixing,CN,32.1667,120.0136,74.55,53,0,11.36,clear sky
310,Tohana,IN,29.7,75.9,101.46,11,100,9.35,overcast clouds
311,Grand Island,US,40.925,-98.342,54.01,44,0,5.75,clear sky
312,Margate,GB,51.3813,1.3862,50.31,86,69,1.99,broken clouds
313,Chato,TZ,-2.6378,31.7669,65.44,90,100,4.34,overcast clouds
314,San-Pedro,CI,4.7485,-6.6363,76.3,92,100,5.23,overcast clouds
315,Ixtapa,MX,20.7,-105.2,74.23,62,3,1.99,clear sky
316,Samana,DO,19.2056,-69.3369,73.0,90,100,4.12,overcast clouds
317,Pekalongan,ID,-6.8886,109.6753,78.58,86,98,3.67,light rain
318,Kimbe,PG,-5.5502,150.1429,84.69,76,74,4.16,moderate rain
319,Togitsu,JP,32.8333,129.85,58.98,94,75,4.61,moderate rain
320,Pafos,CY,34.7667,32.4167,56.98,72,40,8.05,scattered clouds
321,Hastings,GB,50.8552,0.5729,50.32,79,94,11.56,overcast clouds
322,Upernavik,GL,72.7868,-56.1549,-7.31,72,61,8.48,broken clouds
323,Karpathos,GR,35.507,27.2132,57.16,82,8,5.75,clear sky
324,La Salle,US,41.3334,-89.0918,52.16,85,100,18.41,overcast clouds
325,Nueva Gerona,CU,21.8833,-82.8,77.65,73,35,20.07,scattered clouds
326,Nefteyugansk,RU,61.0998,72.6035,18.45,66,20,12.33,few clouds
327,Varhaug,NO,58.6147,5.6457,48.85,68,67,8.34,broken clouds
328,Mtambile,TZ,-5.3833,39.7,79.95,79,96,7.85,light rain
329,Smoky Lake,CA,54.1169,-112.4686,34.52,60,50,0.0,scattered clouds
330,Requena,ES,39.4883,-1.1004,47.52,86,98,9.22,overcast clouds
331,Khovu-Aksy,RU,51.1333,93.6,44.37,37,67,6.69,broken clouds
332,Trincomalee,LK,8.5711,81.2335,84.76,72,74,7.34,broken clouds
333,Wonthaggi,AU,-38.6044,145.5913,61.83,53,74,8.66,broken clouds
334,Adrar,MR,20.5022,-10.0711,71.74,18,3,11.48,clear sky
335,Marsciano,IT,42.9059,12.3359,53.38,62,100,1.99,overcast clouds
336,Namibe,AO,-15.1961,12.1522,77.11,81,84,7.05,broken clouds
337,Grindavik,IS,63.8424,-22.4338,46.35,93,20,6.91,few clouds
338,Dingle,PH,10.9995,122.6711,88.72,62,96,11.14,overcast clouds
339,Cockburn Town,TC,21.4612,-71.1419,78.06,77,100,18.92,overcast clouds
340,Berlevag,NO,70.8578,29.0864,42.6,89,97,4.79,overcast clouds
341,Otane,NZ,-39.8833,176.6333,72.01,69,100,7.81,overcast clouds
342,Alofi,NU,-19.0595,-169.9187,82.29,78,96,4.61,overcast clouds
343,Kolo,PL,52.2002,18.6387,43.09,98,100,2.84,overcast clouds
344,Lagoa,PT,39.05,-27.9833,57.0,78,79,20.18,light rain
345,Saint-Francois,FR,46.4154,3.9054,45.84,87,0,3.44,clear sky
346,Nandi Hills,KE,0.1066,35.1838,59.65,87,49,1.66,scattered clouds
347,Belfast,GB,54.5833,-5.9333,48.02,73,82,11.5,broken clouds
348,Fairbanks,US,64.8378,-147.7164,44.56,31,0,5.75,clear sky
349,Bauru,BR,-22.3147,-49.0606,64.83,85,4,5.01,clear sky
350,Rehoboth,NA,-23.3167,17.0833,55.51,57,36,4.85,scattered clouds
351,Carnarvon,AU,-24.8667,113.6333,78.87,53,95,10.36,overcast clouds
352,Kalmunai,LK,7.4167,81.8167,86.79,65,44,5.14,scattered clouds
353,Amahai,ID,-3.3333,128.9167,86.05,67,89,5.88,overcast clouds
354,Mar Del Plata,AR,-38.0023,-57.5575,59.88,90,0,7.0,clear sky
355,Suileng,CN,47.25,127.0833,63.63,37,100,13.04,light rain
356,Ustka,PL,54.5805,16.8619,43.75,87,99,8.1,overcast clouds
357,Saint Anthony,US,45.0205,-93.218,42.73,95,100,5.75,overcast clouds
358,Ginda,IN,30.6945,78.4932,79.77,20,98,6.29,overcast clouds
359,Prado,BR,-17.3411,-39.2208,71.37,86,1,5.61,clear sky
360,Bela Palanka,RS,43.2183,22.3111,35.47,94,47,5.53,scattered clouds
361,Molepolole,BW,-24.4066,25.4951,50.14,79,56,4.59,broken clouds
362,Chino Valley,US,34.7575,-112.4538,61.81,29,0,8.05,clear sky
363,Zhigansk,RU,66.7697,123.3711,26.04,79,100,4.94,overcast clouds
364,Keetmanshoop,NA,-26.5833,18.1333,62.31,47,68,8.03,broken clouds
365,Bahia Blanca,AR,-38.7196,-62.2724,50.63,86,1,4.88,clear sky
366,San Cristobal,VE,7.7669,-72.225,66.38,97,100,3.27,overcast clouds
367,Prince Albert,CA,53.2001,-105.7677,30.15,64,40,6.91,scattered clouds
368,Nishihara,JP,26.1842,127.7558,83.86,76,75,20.71,broken clouds
369,Ossora,RU,59.2353,163.0719,26.76,81,7,5.99,clear sky
370,Siderno,IT,38.2779,16.302,57.33,89,90,6.15,overcast clouds
371,Marsabit,KE,2.3284,37.9899,62.78,91,100,16.69,light rain
372,Santa Cruz,BO,-17.8,-63.1667,72.86,88,75,3.44,broken clouds
373,Barcelos,PT,41.5388,-8.6151,46.85,77,89,2.8,overcast clouds
374,Mareeba,AU,-17.0,145.4333,75.43,91,98,4.54,light rain
375,Lima,PE,-12.0432,-77.0282,71.91,71,0,8.05,clear sky
376,Mets Masrik,AM,40.2183,45.7681,49.91,66,9,6.46,clear sky
377,Karratha,AU,-20.7377,116.8463,94.48,25,3,12.93,clear sky
378,Lahan,NP,26.7296,86.4951,90.84,40,29,9.71,scattered clouds
379,Aviles,ES,43.5547,-5.9248,46.76,73,20,8.05,few clouds
380,Tank,PK,32.2217,70.3793,91.35,11,0,4.12,clear sky
381,Touros,BR,-5.1989,-35.4608,76.08,89,35,7.52,scattered clouds
382,Ambovombe,MG,-25.1667,46.0833,74.75,82,51,19.01,broken clouds
383,Liman,UA,48.9884,37.8023,43.75,72,6,8.66,clear sky
384,Magadan,RU,59.5667,150.8,33.53,67,100,6.2,overcast clouds
385,Kyakhta,RU,50.3508,106.4494,45.28,26,99,10.45,overcast clouds
386,Svetlogorsk,BY,52.6333,29.7333,41.77,98,100,3.91,overcast clouds
387,Khammam,IN,17.25,80.15,97.05,35,14,11.77,few clouds
388,Krasnofarfornyy,RU,59.1364,31.8502,42.17,87,34,9.69,scattered clouds
389,Zhangjiakou,CN,40.81,114.8794,59.85,24,38,22.91,light rain
390,Barra Do Corda,BR,-5.5,-45.25,72.12,98,5,1.07,clear sky
391,Tari,NG,12.4086,4.4914,86.38,49,95,13.0,overcast clouds
392,Sorland,NO,67.667,12.6934,43.59,76,68,4.81,broken clouds
393,Springbok,ZA,-29.6643,17.8865,62.1,42,23,6.73,few clouds
394,Taseyevo,RU,57.2169,94.8978,42.82,72,100,6.71,light rain
395,Otaru,JP,43.1894,141.0022,71.44,43,1,6.17,clear sky
396,Riberalta,BO,-10.9833,-66.1,73.09,97,100,2.3,overcast clouds
397,Huarmey,PE,-10.0681,-78.1522,68.22,86,99,7.85,overcast clouds
398,Saint-Joseph,RE,-21.3667,55.6167,80.2,81,40,7.72,scattered clouds
399,Aklavik,CA,68.2191,-135.0107,4.82,98,91,6.15,overcast clouds
400,Araouane,ML,18.9048,-3.5265,77.92,13,0,9.26,clear sky
401,Skaerbaek,DK,55.1573,8.769,39.9,87,9,6.67,clear sky
402,Tuatapere,NZ,-46.1333,167.6833,54.05,90,100,6.71,overcast clouds
403,Bubaque,GW,11.2833,-15.8333,75.33,72,79,10.16,broken clouds
404,Kahului,US,20.8947,-156.47,75.22,76,40,19.57,scattered clouds
405,Oranjemund,NA,-28.55,16.4333,60.42,71,16,6.15,few clouds
406,Tateyama,JP,34.9833,139.8667,64.65,72,100,6.93,overcast clouds
407,Belaya Gora,RU,68.5333,146.4167,25.63,78,100,1.81,overcast clouds
408,Nyimba,ZM,-14.5566,30.8149,65.53,92,99,3.8,overcast clouds
409,Oktyabrskoye,RU,43.0645,44.7417,46.54,87,100,13.42,overcast clouds
410,Umm Lajj,SA,25.0213,37.2685,75.27,61,5,9.35,clear sky
411,Komsomolskiy,UZ,40.4272,71.7189,61.52,72,40,6.91,scattered clouds
412,Garmsar,IR,35.2182,52.3409,80.08,21,63,1.92,broken clouds
413,Verkhnevilyuysk,RU,63.4453,120.3167,30.16,87,99,4.43,light snow
414,Mopipi,BW,-21.1833,24.8833,61.47,80,38,10.18,scattered clouds
415,Ladario,BR,-19.0047,-57.6017,72.28,60,1,2.24,clear sky
416,Mezen,RU,65.8522,44.24,28.0,73,23,0.74,few clouds
417,Bandarbeyla,SO,9.4942,50.8122,82.89,67,12,3.27,few clouds
418,Gambela,ET,8.25,34.5833,77.29,77,100,3.42,overcast clouds
419,Kitob,UZ,39.0843,66.8332,68.02,44,43,3.91,scattered clouds
420,Tshikapa,CD,-6.4167,20.8,70.3,98,100,2.98,moderate rain
421,Severo-Kurilsk,RU,50.6789,156.125,37.22,93,95,3.22,overcast clouds
422,Lata,PT,40.1629,-8.3327,44.08,94,31,1.03,scattered clouds
423,Shaoyang,CN,27.2315,111.4525,76.87,50,99,4.72,overcast clouds
424,Filadelfia,US,39.9523,-75.1638,48.97,62,40,5.75,scattered clouds
425,Cayenne,GF,4.9333,-52.3333,78.1,1,75,9.22,mist
426,Henties Bay,NA,-22.116,14.2845,69.03,58,63,1.95,broken clouds
427,Praia Da Vitoria,PT,38.7333,-27.0667,59.25,77,75,15.93,broken clouds
428,Jalu,LY,29.0331,21.5482,62.44,30,9,9.35,clear sky
429,Namanga,KE,-2.5433,36.7905,66.9,80,85,5.57,overcast clouds
430,Fougamou,GA,-1.2154,10.5838,73.08,98,100,0.43,overcast clouds
431,Tommot,RU,58.9564,126.2925,33.26,50,100,4.27,light snow
432,Husavik,IS,66.0449,-17.3389,41.13,90,74,11.97,broken clouds
433,Doha,QA,25.2867,51.5333,78.78,61,0,6.91,clear sky
434,Van Buren,US,35.4368,-94.3483,62.15,95,100,8.01,overcast clouds
435,Salalah,OM,17.0151,54.0924,80.69,74,75,2.3,broken clouds
436,Carmo Do Cajuru,BR,-20.1842,-44.7711,59.63,80,0,3.29,clear sky
437,Kununurra,AU,-15.7667,128.7333,94.98,26,47,9.22,scattered clouds
438,San Quintin,MX,30.4833,-115.95,58.75,83,0,13.67,clear sky
439,Langres,FR,47.8333,5.3333,39.61,75,100,7.4,overcast clouds
440,Leningradskiy,RU,69.3833,178.4167,22.06,94,60,5.59,broken clouds
441,Rafai,CF,4.95,23.9167,69.49,99,100,2.48,overcast clouds
442,Krotoszyn,PL,51.6987,17.4374,46.56,96,100,2.1,overcast clouds
443,Hirara,JP,24.8,125.2833,80.87,78,75,18.41,broken clouds
444,Puqi,CN,29.7167,113.8833,80.92,44,0,11.65,clear sky
445,Andenes,NO,69.3143,16.1194,42.78,81,75,9.22,broken clouds
446,Mulchen,CL,-37.7167,-72.2333,45.43,78,93,2.24,overcast clouds
447,Abnub,EG,27.2696,31.1511,57.42,53,1,12.91,clear sky
448,Evensk,RU,61.95,159.2333,26.22,77,90,2.3,overcast clouds
449,Tezu,IN,27.9167,96.1667,86.38,49,1,4.59,clear sky
450,Malakal,SS,9.5334,31.6605,83.17,60,76,6.51,broken clouds
451,Miraflores,MX,19.2167,-98.8083,63.03,73,87,3.47,overcast clouds
452,Bethanien,NA,-26.502,17.1583,61.45,44,39,7.58,scattered clouds
453,Korla,CN,41.7597,86.1469,73.56,19,98,0.36,overcast clouds
454,Nuuk,GL,64.1835,-51.7216,23.61,93,100,9.22,light snow
455,Pochutla,MX,15.7432,-96.4661,78.82,62,17,3.89,few clouds
456,Concordia,AR,-31.393,-58.0209,62.78,92,75,16.11,moderate rain
457,Shanghai,CN,31.2222,121.4581,77.94,54,0,6.71,clear sky
458,Clemencia,CO,10.5665,-75.325,78.17,84,91,6.44,overcast clouds
459,Abha,SA,18.2164,42.5053,66.02,59,0,0.0,clear sky
460,Coari,BR,-4.085,-63.1414,72.91,99,99,2.84,overcast clouds
461,Maykor,RU,59.0059,55.88,27.68,61,66,12.93,broken clouds
462,Suba,PH,10.8438,121.0102,84.06,72,76,7.0,broken clouds
463,Beyneu,KZ,45.3167,55.2,73.62,30,60,15.9,broken clouds
464,Dubbo,AU,-32.25,148.6167,69.93,46,87,6.91,overcast clouds
465,Shaunavon,CA,49.6501,-108.4181,22.78,84,45,4.72,scattered clouds
466,Saint-Paul,RE,-21.0096,55.2707,81.73,76,84,0.13,broken clouds
467,Salina Cruz,MX,16.1667,-95.2,80.74,68,1,4.07,clear sky
468,Hokitika,NZ,-42.7167,170.9667,62.17,96,85,10.56,overcast clouds
469,Cap-Aux-Meules,CA,47.3821,-61.8597,37.42,75,13,23.02,few clouds
470,Kotido,UG,2.9806,34.1331,69.4,83,88,6.42,light rain
471,Mombetsu,JP,44.3525,143.3525,75.22,16,0,13.8,clear sky
472,Bilma,NE,18.6853,12.9164,77.85,12,1,4.43,clear sky
473,Obo,CF,5.3998,26.4869,68.74,97,100,2.86,overcast clouds
474,Dharan,NP,26.8125,87.2835,87.08,43,8,6.8,clear sky
475,Pecos,US,31.4229,-103.4932,79.63,13,0,6.91,clear sky
476,Bengkulu,ID,-3.8004,102.2655,85.21,64,75,7.63,broken clouds
477,Iskateley,RU,67.6803,53.1512,18.46,92,74,8.32,broken clouds
478,Sujiatun,CN,41.6592,123.3392,69.98,40,0,20.13,clear sky
479,Grenville,GD,12.1167,-61.6167,78.85,76,28,15.08,scattered clouds
480,Nabire,ID,-3.3667,135.4833,85.53,73,96,4.65,overcast clouds
481,Puerto Madryn,AR,-42.7692,-65.0385,53.51,46,8,12.44,clear sky
482,Baiyin,CN,36.5583,104.2081,64.76,10,77,12.5,broken clouds
483,Capitao Poco,BR,-1.7464,-47.0594,72.34,98,100,3.42,overcast clouds
484,Saint-Pierre,RE,-21.3393,55.4781,81.28,82,75,8.05,broken clouds
485,Guymon,US,36.6828,-101.4816,66.2,34,0,10.36,clear sky
486,Mongoumba,CF,3.6415,18.5936,70.97,99,100,3.51,light rain
487,Pemangkat,ID,1.1667,108.9667,85.71,68,48,8.23,scattered clouds
488,Sioux Lookout,CA,50.1001,-91.917,32.07,100,100,5.75,light intensity drizzle
489,Waingapu,ID,-9.6567,120.2641,85.87,67,69,9.78,broken clouds
490,Papara,BR,-3.9839,-38.7273,81.0,97,33,2.35,scattered clouds
491,Dongsheng,CN,39.8161,109.9776,52.54,32,25,24.63,scattered clouds
492,Ayagoz,KZ,47.9714,80.4392,61.66,29,57,15.84,broken clouds
493,Maniitsoq,GL,65.4167,-52.9,25.2,63,100,11.1,snow
494,Salinopolis,BR,-0.6136,-47.3561,78.4,87,100,6.15,overcast clouds
495,Krapivinskiy,RU,54.9992,86.8133,42.37,72,100,7.74,overcast clouds
496,Green Valley,US,31.8543,-110.9937,76.15,21,0,9.33,clear sky
497,Geraldton,AU,-28.7667,114.6,86.41,19,83,14.97,broken clouds
498,Marktoberdorf,DE,47.7833,10.6167,32.27,79,20,0.0,few clouds
499,Faya,SA,18.3851,42.4509,66.31,42,77,1.07,broken clouds
500,Sechura,PE,-5.5569,-80.8222,68.79,79,83,15.41,broken clouds
501,Coyah,GN,9.75,-13.4167,79.75,82,82,2.62,broken clouds
502,Hobyo,SO,5.3505,48.5268,83.95,68,95,10.67,overcast clouds
503,Marsa Matruh,EG,31.3525,27.2453,48.4,81,0,0.0,clear sky
504,Hambantota,LK,6.1241,81.1185,86.34,84,75,5.75,broken clouds
505,Sistranda,NO,63.7256,8.834,40.96,88,14,8.37,few clouds
506,Jurm,AF,36.8648,70.8342,60.75,54,98,2.86,overcast clouds
507,Shimoda,JP,34.6667,138.95,66.11,72,100,5.68,moderate rain
508,Pahrump,US,36.2083,-115.9839,71.65,26,7,13.0,clear sky
509,Esso,RU,55.9333,158.7,24.93,92,100,6.91,light snow
510,Redding,US,40.5865,-122.3917,56.97,71,20,26.46,few clouds
511,Kieta,PG,-6.2167,155.6333,84.24,71,26,3.78,scattered clouds
512,Chernyshevskiy,RU,63.0128,112.4714,25.92,85,100,7.25,light snow
513,Sukumo,JP,32.9333,132.7333,61.39,98,100,6.06,light rain
514,Coihaique,CL,-45.5752,-72.0662,47.01,87,100,6.91,light rain
515,Isiro,CD,2.7739,27.616,66.79,99,93,1.77,overcast clouds
516,Chipinge,ZW,-20.1883,32.6236,58.3,99,100,1.83,light rain
517,Passi,PH,11.15,122.65,87.82,65,88,8.68,overcast clouds
518,Half Moon Bay,US,37.4636,-122.4286,60.06,84,100,16.11,mist
519,Rocha,UY,-34.4833,-54.3333,63.66,77,100,10.38,overcast clouds
520,Elliot Lake,CA,46.3834,-82.6331,32.68,92,100,12.01,snow
521,Ashoknagar,IN,24.5667,77.7167,98.04,12,92,10.51,overcast clouds
522,Malanje,AO,-9.5402,16.341,64.22,97,100,2.82,light rain
523,Zaysan,KZ,47.4667,84.8667,59.74,32,98,6.55,overcast clouds
524,Clyde River,CA,70.4692,-68.5914,-0.17,85,100,6.91,light snow
525,Saint-Augustin,CA,51.226,-58.6502,34.27,93,94,14.05,overcast clouds
526,Jiayuguan,CN,39.8167,98.3,61.39,12,100,3.74,overcast clouds
527,Ostrow Mazowiecka,PL,52.8024,21.8951,46.62,96,100,8.03,light rain
528,Amberley,US,39.2048,-84.428,61.36,40,100,9.22,overcast clouds
529,Shahr-E Babak,IR,30.1165,55.1186,69.57,11,19,4.29,few clouds
530,Souillac,MU,-20.5167,57.5167,79.18,89,40,3.44,scattered clouds
531,Moron,AR,-34.6534,-58.6198,62.96,95,94,6.13,moderate rain
532,Aykhal,RU,66.0,111.5,20.07,85,100,11.63,overcast clouds
533,Sikonge,TZ,-5.6333,32.7667,67.82,73,88,5.06,overcast clouds
534,Marzuq,YE,14.4,46.4667,77.5,13,0,4.45,clear sky
535,Dunkwa,GH,5.9656,-1.78,73.63,97,100,1.86,overcast clouds
536,Hamilton,US,39.1834,-84.5333,61.9,41,100,9.22,overcast clouds
537,Nikolsk,RU,53.7189,46.0712,42.12,95,100,12.68,light rain
538,North Myrtle Beach,US,33.816,-78.68,60.85,76,0,4.61,clear sky
539,Salgueiro,BR,-8.0742,-39.1192,72.79,75,93,10.27,overcast clouds
540,Sao Gabriel Da Cachoeira,BR,-0.1303,-67.0892,71.76,99,100,1.21,overcast clouds
541,Akdepe,TM,42.0551,59.3788,68.09,42,0,4.59,clear sky
542,Acapulco,MX,16.8634,-99.8901,78.94,63,0,6.78,clear sky
543,Webuye,KE,0.6075,34.7697,64.92,86,49,2.77,scattered clouds
544,Tres Picos,MX,15.8667,-93.5333,79.9,81,5,2.21,clear sky
545,Usinsk,RU,65.9939,57.5281,14.68,75,8,15.86,clear sky
546,Vardo,NO,70.3705,31.1107,37.63,96,56,12.44,broken clouds
547,Waipawa,NZ,-41.4122,175.5153,65.97,70,17,12.06,moderate rain
548,Ayr,GB,55.4627,-4.6339,42.78,70,0,16.11,clear sky
549,Paamiut,GL,61.994,-49.6678,33.39,75,100,36.13,light snow
550,North Platte,US,41.1239,-100.7654,55.38,38,69,7.0,broken clouds
551,Sabzevar,IR,36.2126,57.6819,60.08,59,0,9.22,clear sky
552,Qaqortoq,GL,60.7167,-46.0333,30.7,77,100,5.79,snow
553,Orbetello,IT,42.4408,11.2196,53.62,93,91,4.61,overcast clouds
554,Mackenzie,CA,55.2999,-123.1698,34.02,60,100,0.0,overcast clouds
555,Sampit,ID,-2.5333,112.95,83.73,73,99,2.28,overcast clouds
556,Gamba,GA,-2.65,10.0,76.32,92,100,3.56,overcast clouds
557,Fengzhen,CN,40.4394,113.1536,56.17,26,45,23.49,scattered clouds
558,Klyuchi,RU,52.2667,79.1667,49.93,93,100,14.61,moderate rain
559,Nakusp,CA,50.2499,-117.8023,46.74,49,93,6.91,overcast clouds
560,Vila Velha,BR,-20.3297,-40.2925,72.95,81,0,2.3,clear sky
561,Kisesa,TZ,-3.0833,34.15,65.12,87,100,3.74,overcast clouds
562,Hammerfest,NO,70.6634,23.6821,37.85,93,75,2.3,broken clouds
563,Najran,SA,17.4924,44.1277,72.25,16,0,2.08,clear sky
564,San Policarpo,PH,12.1791,125.5072,83.12,82,88,9.98,overcast clouds
565,Bagotville,AU,-28.9833,153.4167,75.22,99,63,8.59,broken clouds
566,Nizwa,OM,22.9333,57.5333,86.58,15,63,3.96,broken clouds
567,Dudinka,RU,69.4058,86.1778,20.62,82,95,13.13,overcast clouds
568,Laurel,US,39.0993,-76.8483,51.6,68,0,4.61,clear sky
569,Bukama,CD,-9.2,25.85,68.49,99,97,0.85,light rain
570,Te Anau,NZ,-45.4167,167.7167,53.22,92,100,2.15,overcast clouds
571,Yangambi,CD,0.8102,24.4336,69.75,97,100,1.12,overcast clouds
572,Guthrie,US,35.8789,-97.4253,70.88,56,0,6.91,clear sky
573,Eyrarbakki,IS,63.863,-21.1481,46.45,88,100,7.47,overcast clouds
574,Klaksvik,FO,62.2266,-6.589,47.32,91,9,13.91,clear sky
575,Biak,ID,-0.9131,122.8766,84.4,67,75,2.62,broken clouds
576,Ugoofaaru,MV,5.6667,73.0,84.06,75,76,6.98,broken clouds
577,Nisia Floresta,BR,-6.0911,-35.2086,77.38,94,22,6.26,light rain
578,Bintulu,MY,3.1667,113.0333,88.21,79,40,7.0,scattered clouds
579,Twentynine Palms,US,34.1356,-116.0542,67.86,37,0,6.33,clear sky
580,North Las Vegas,US,36.1989,-115.1175,80.02,14,0,17.27,clear sky
581,Vvedenskoye,RU,55.4753,65.0847,40.33,86,94,10.07,overcast clouds
582,Semirom,IR,31.4167,51.5667,59.07,24,99,1.54,overcast clouds
583,Gboko,NG,7.3179,8.9951,77.58,81,55,9.62,broken clouds
584,Peniche,PT,39.3558,-9.3811,55.11,90,83,11.36,broken clouds
585,Arrecife,ES,28.963,-13.5477,62.58,72,100,17.27,overcast clouds
586,Kenai,US,60.5544,-151.2583,44.69,47,0,8.05,clear sky
587,Krasnoshchekovo,RU,51.6708,82.7289,50.74,73,100,18.1,overcast clouds
588,Orlik,RU,52.5178,99.825,33.8,53,83,4.16,broken clouds
589,Linhares,BR,-19.3911,-40.0722,67.14,96,2,4.52,clear sky
590,Kemijarvi,FI,66.7131,27.4306,41.38,93,65,4.32,broken clouds
591,Ballina,AU,-28.8667,153.5667,75.38,96,100,5.75,overcast clouds
592,Taksimo,RU,56.3444,114.8794,30.04,65,100,2.55,overcast clouds
593,Pitimbu,BR,-7.4706,-34.8086,75.79,82,46,10.63,scattered clouds
594,Ndioum,SN,16.5129,-14.6471,82.69,23,23,11.79,few clouds
595,Abu Samrah,SY,35.3029,37.1841,55.54,69,0,7.58,clear sky
596,Sandwick,GB,60.0,-1.25,42.62,100,100,11.5,fog
597,Nago,JP,26.5881,127.9761,84.63,68,53,15.12,broken clouds
598,Acuitzio,MX,20.345,-101.9771,67.48,29,1,6.64,clear sky
599,Noumea,NC,-22.2763,166.4572,82.38,67,9,7.43,clear sky
600,Tecoanapa,MX,16.5167,-98.75,79.23,70,5,3.71,clear sky
601,Las Margaritas,MX,16.3167,-91.9833,61.02,84,78,2.3,broken clouds
602,Asfi,MA,32.2994,-9.2372,54.79,73,3,11.45,clear sky
603,Don Sak,TH,9.3168,99.6918,89.94,71,98,7.63,overcast clouds
604,Dalvik,IS,65.9702,-18.5286,40.93,77,84,5.46,broken clouds
605,Havoysund,NO,70.9963,24.6622,41.23,92,100,17.25,overcast clouds
606,Lodja,CD,-3.4833,23.4333,68.94,100,100,1.83,moderate rain
607,Morondava,MG,-20.2833,44.2833,78.94,75,6,8.9,clear sky
608,Esmeraldas,BR,-19.7625,-44.3139,68.86,82,1,3.4,clear sky
609,Sumkino,RU,58.1108,68.3244,31.53,88,100,13.49,light snow
610,Nepa Nagar,IN,21.4667,76.4,98.62,15,88,16.93,overcast clouds
611,Chardara,KZ,41.2547,67.9692,67.08,57,84,2.44,broken clouds
612,Peterongan,ID,-7.5394,112.2792,85.37,71,65,8.3,broken clouds
613,Zheleznodorozhnyy,RU,55.7503,38.0042,46.81,83,90,16.26,overcast clouds
614,Arman,RU,59.7,150.1667,34.02,63,100,1.88,overcast clouds
615,Raudeberg,NO,61.9875,5.1352,43.86,74,5,7.27,clear sky
616,Zhiryatino,RU,53.2228,33.7306,44.92,94,100,11.3,light rain
617,Crotone,IT,39.0851,17.1178,58.19,93,94,11.32,overcast clouds
618,Caravelas,BR,-17.7125,-39.2481,72.86,79,0,5.32,clear sky
619,Avera,US,33.194,-82.5271,59.05,71,100,11.12,overcast clouds
620,Shimanovsk,RU,52.0,127.7,46.11,28,96,10.71,overcast clouds
621,Smithers,CA,54.7804,-127.1743,43.12,42,100,4.61,overcast clouds
622,Vetralla,IT,42.3098,12.0784,53.11,92,100,4.29,overcast clouds
623,Bonfim,BR,3.0833,-59.95,79.14,76,99,3.65,overcast clouds
624,Batemans Bay,AU,-35.7167,150.1833,67.1,67,96,8.14,overcast clouds
625,Kenora,CA,49.8167,-94.4337,36.57,93,100,10.36,mist
626,Umm Kaddadah,SD,13.6017,26.6876,77.76,17,100,18.86,overcast clouds
627,Holland,US,42.7875,-86.1089,48.56,69,100,10.36,overcast clouds
628,Akhmeta,GE,42.0311,45.2075,50.52,84,76,2.13,broken clouds
629,Oltu,TR,40.5498,42.0013,50.5,66,32,0.85,scattered clouds
630,Suleja,NG,9.1758,7.1808,74.39,87,100,2.33,overcast clouds
631,Motril,ES,36.7507,-3.5179,48.27,66,0,15.82,clear sky
632,Meadow Lake,US,34.8014,-106.5436,69.3,17,0,5.84,clear sky
633,Buin,CL,-33.7333,-70.75,60.73,66,0,2.55,clear sky
634,La Rioja,ES,42.25,-2.5,38.98,99,100,4.76,overcast clouds
635,Male,MV,4.1748,73.5089,87.75,70,75,5.75,broken clouds
636,Port-Cartier,CA,50.0334,-66.8654,34.75,76,4,11.99,clear sky
637,Warrington,GB,53.3925,-2.5802,46.87,77,100,6.91,overcast clouds
638,Ekhabi,RU,53.5102,142.9671,32.5,83,100,16.78,overcast clouds
639,Tiarei,PF,-17.5333,-149.3333,82.42,72,73,8.66,light rain
640,Plettenberg Bay,ZA,-34.0527,23.3716,66.42,58,100,6.04,overcast clouds
641,Vila Franca Do Campo,PT,37.7167,-25.4333,57.61,69,76,8.28,broken clouds
642,Bonavista,CA,48.6499,-53.1147,35.37,92,100,14.58,overcast clouds
643,Punta Alta,AR,-38.8759,-62.0736,51.94,83,2,6.33,clear sky
644,Gimli,CA,50.6336,-96.9907,32.02,100,100,8.05,overcast clouds
645,Lithgow,AU,-33.4833,150.15,60.48,51,48,8.32,scattered clouds
646,Antalaha,MG,-14.9003,50.2788,74.7,96,100,5.57,heavy intensity rain
647,Omsukchan,RU,62.5333,155.8,19.58,80,80,4.92,broken clouds
648,Svetlyy,RU,54.675,20.1347,47.97,84,95,9.35,overcast clouds
649,Esperance,AU,-33.8667,121.9,66.04,56,100,10.56,overcast clouds
650,Narsingdi,BD,23.9208,90.7181,82.42,64,40,5.06,scattered clouds
651,Sinnai,IT,39.3042,9.2036,54.05,94,40,9.22,scattered clouds
652,Lagunas,PE,-5.2269,-75.6753,72.32,98,98,2.26,moderate rain
653,Pacific Grove,US,36.6177,-121.9166,58.01,73,7,21.0,clear sky
654,Gurupi,BR,-11.7292,-49.0686,76.24,74,48,2.51,scattered clouds
655,Nieuwpoort,BE,51.1244,2.7735,48.02,76,20,11.5,few clouds
656,Ban Nahin,LA,18.2418,104.2122,95.22,36,1,5.01,clear sky
657,Lucena,PH,13.9314,121.6172,87.1,61,31,7.76,scattered clouds
658,College,US,64.8569,-147.8028,44.55,31,0,5.75,clear sky
659,Sakakah,SA,29.9697,40.2064,65.77,22,0,10.83,clear sky
660,Nara,JP,34.6851,135.8049,67.37,66,100,6.42,light rain
661,Seredeyskiy,RU,54.0507,35.2318,43.99,95,100,9.4,light rain
662,Prince Rupert,CA,54.3161,-130.3201,53.29,37,0,9.22,clear sky
663,Coruripe,BR,-10.1256,-36.1756,77.11,75,53,6.35,broken clouds
664,Mantua,IT,45.1667,10.7833,50.95,74,100,1.99,overcast clouds
665,Tagusao,PH,9.1924,117.8141,87.12,67,91,3.0,light rain
666,Lehi,US,40.3916,-111.8508,58.55,39,77,3.0,broken clouds
667,Payakumbuh,ID,-0.2202,100.6308,88.0,50,94,2.77,overcast clouds
668,Nantucket,US,41.2835,-70.0995,43.14,86,0,0.0,clear sky
669,Jacareacanga,BR,-6.2222,-57.7528,72.37,99,88,1.45,overcast clouds
670,Amapa,BR,1.0,-52.0,71.87,100,100,1.19,overcast clouds
671,Dicabisagan,PH,17.0818,122.4157,84.04,75,25,6.11,scattered clouds
672,Kaeo,NZ,-35.1,173.7833,70.32,90,69,7.54,broken clouds
673,Khani,GE,41.9563,42.9566,40.57,79,16,3.13,few clouds
674,Barabinsk,RU,55.3571,78.357,48.51,53,82,6.04,broken clouds
675,Saskylakh,RU,71.9167,114.0833,13.37,91,100,6.51,overcast clouds
676,Boissevain,CA,49.2306,-100.0559,34.3,92,99,16.33,overcast clouds
677,Necochea,AR,-38.5473,-58.7368,56.25,90,94,9.01,overcast clouds
678,Thanh Hoa,VN,19.8,105.7667,80.49,66,60,7.87,broken clouds
679,Barranca,PE,-10.75,-77.7667,66.87,86,89,6.73,overcast clouds
680,Morehead,US,37.2711,-87.1764,57.78,81,100,9.22,overcast clouds
681,Anadyr,RU,64.75,177.4833,32.5,74,75,6.71,light snow
682,Kokoda,PG,-8.8785,147.7407,81.36,88,93,3.09,overcast clouds
683,Lingao,CN,19.9103,109.6859,80.64,71,19,8.59,few clouds
684,Novokizhinginsk,RU,51.6115,109.5917,41.11,36,89,12.3,overcast clouds
685,Dolores,AR,-36.3132,-57.6792,58.24,93,86,6.73,overcast clouds
686,Tonj,SS,7.2737,28.6822,77.18,70,77,8.63,broken clouds
687,Shinuhayr,AM,39.4367,46.3179,52.34,76,6,4.32,clear sky
688,Kachug,RU,53.9606,105.8817,40.53,51,100,13.24,light rain
689,Tiznit,MA,29.5833,-9.5,50.34,78,10,4.03,clear sky
690,Tharad,IN,24.3961,71.6267,93.4,32,29,8.57,scattered clouds
691,Abu Kamal,SY,34.4506,40.9171,63.63,40,0,11.65,clear sky
692,Aberdeen,GB,57.1437,-2.0981,39.65,100,100,3.44,fog
693,Mpika,ZM,-11.8343,31.4529,60.57,95,100,7.78,overcast clouds
694,Mae Hong Son,TH,19.3003,97.9685,84.34,65,20,3.44,few clouds
695,Pamekasan,ID,-7.1568,113.4746,84.04,75,61,7.96,broken clouds
696,Washougal,US,45.5826,-122.3534,48.94,88,0,13.8,clear sky
697,Caraguatatuba,BR,-23.6338,-45.4899,66.6,92,50,2.57,scattered clouds
698,Tolaga Bay,NZ,-38.3667,178.3,65.16,85,100,14.38,overcast clouds
699,Broken Hill,AU,-31.95,141.4333,67.71,52,75,9.22,broken clouds
700,Nebolchi,RU,59.1239,33.3454,42.13,81,69,10.6,broken clouds
701,Metro,ID,-5.1131,105.3067,82.94,72,97,5.68,overcast clouds
702,Singuilucan,MX,19.9667,-98.5167,54.61,71,99,3.8,light rain
703,Hualmay,PE,-11.0964,-77.6139,67.05,88,99,8.84,overcast clouds
704,Vargashi,RU,55.3556,65.8467,42.46,77,94,14.2,overcast clouds
705,Sungaipenuh,ID,-2.0833,101.3833,83.1,47,84,5.01,broken clouds
706,Samarai,PG,-10.6167,150.6667,84.42,71,99,16.46,overcast clouds
707,Sur,OM,22.5667,59.5289,89.71,38,40,4.88,scattered clouds
708,La Ronge,CA,55.1001,-105.2842,26.85,63,0,3.44,clear sky
709,Lumut,MY,4.2323,100.6298,87.82,74,40,3.44,scattered clouds
710,Tall Kayf,TR,37.0833,41.0667,52.99,58,0,5.73,clear sky
711,Tessalit,ML,20.1986,1.0114,76.39,8,0,5.14,clear sky
712,Ahuimanu,US,21.4447,-157.8378,74.91,81,75,17.27,broken clouds
